[
  {
    "code": "DT_0031",
    "name": "거문도",
    "lat": 34.02833,
    "lng": 127.30888,
    "sea": "남해"
  },
  {
    "code": "DT_0032",
    "name": "강화대교",
    "lat": 37.73194,
    "lng": 126.52222,
    "sea": "서해"
  },
  {
    "code": "DT_0035",
    "name": "흑산도",
    "lat": 34.68416,
    "lng": 125.43555,
    "sea": "서해"
  },
  {
    "code": "DT_0036",
    "name": "대청도",
    "lat": 37.82522,
    "lng": 124.71805,
    "sea": "서해"
  },
  {
    "code": "DT_0037",
    "name": "어청도",
    "lat": 36.11722,
    "lng": 125.98472,
    "sea": "서해"
  },
  {
    "code": "DT_0038",
    "name": "굴업도",
    "lat": 37.19444,
    "lng": 125.995,
    "sea": "서해"
  },
  {
    "code": "DT_0039",
    "name": "왕돌초",
    "lat": 36.71916,
    "lng": 129.7325,
    "sea": "동해"
  },
  {
    "code": "DT_0041",
    "name": "복사초",
    "lat": 34.09833,
    "lng": 126.16833,
    "sea": "서해"
  },
  {
    "code": "DT_0042",
    "name": "교본초",
    "lat": 34.70472,
    "lng": 128.30638,
    "sea": "남해"
  },
  {
    "code": "DT_0043",
    "name": "영흥도",
    "lat": 37.23861,
    "lng": 126.42861,
    "sea": "서해"
  },
  {
    "code": "DT_0044",
    "name": "영종대교",
    "lat": 37.54555,
    "lng": 126.58444,
    "sea": "서해"
  },
  {
    "code": "DT_0046",
    "name": "쌍정초",
    "lat": 37.55616,
    "lng": 130.93921,
    "sea": "동해"
  },
  {
    "code": "DT_0048",
    "name": "속초등표",
    "lat": 38.19947,
    "lng": 128.61308,
    "sea": "남해"
  },
  {
    "code": "DT_0049",
    "name": "광양",
    "lat": 34.90367,
    "lng": 127.75483,
    "sea": "남해"
  },
  {
    "code": "DT_0051",
    "name": "서천마량",
    "lat": 36.12888,
    "lng": 126.49527,
    "sea": "서해"
  },
  {
    "code": "DT_0052",
    "name": "인천송도",
    "lat": 37.33805,
    "lng": 126.58611,
    "sea": "서해"
  },
  {
    "code": "DT_0056",
    "name": "부산항신항",
    "lat": 35.0775,
    "lng": 128.78472,
    "sea": "남해"
  },
  {
    "code": "DT_0057",
    "name": "동해항",
    "lat": 37.49472,
    "lng": 129.14388,
    "sea": "동해"
  },
  {
    "code": "DT_0058",
    "name": "경인항",
    "lat": 37.56083,
    "lng": 126.60111,
    "sea": "서해"
  },
  {
    "code": "DT_0060",
    "name": "연평도",
    "lat": 37.65766,
    "lng": 125.71441,
    "sea": "서해"
  },
  {
    "code": "DT_0061",
    "name": "삼천포",
    "lat": 34.92416,
    "lng": 128.06972,
    "sea": "남해"
  },
  {
    "code": "DT_0063",
    "name": "가덕도",
    "lat": 35.02417,
    "lng": 128.81093,
    "sea": "남해"
  },
  {
    "code": "DT_0064",
    "name": "교동대교",
    "lat": 37.78961,
    "lng": 126.33961,
    "sea": "서해"
  },
  {
    "code": "DT_0067",
    "name": "안흥",
    "lat": 36.67463,
    "lng": 126.12955,
    "sea": "서해"
  },
  {
    "code": "DT_0068",
    "name": "위도",
    "lat": 35.61808,
    "lng": 126.30181,
    "sea": "서해"
  },
  {
    "code": "DT_0091",
    "name": "포항",
    "lat": 36.05177,
    "lng": 129.37627,
    "sea": "동해"
  },
  {
    "code": "DT_0093",
    "name": "소무의도",
    "lat": 37.37306,
    "lng": 126.44006,
    "sea": "서해"
  },
  {
    "code": "DT_0094",
    "name": "서거차도",
    "lat": 34.25142,
    "lng": 125.91544,
    "sea": "서해"
  },
  {
    "code": "IE_0060",
    "name": "이어도",
    "lat": 32.12277,
    "lng": 125.18222,
    "sea": "서해"
  },
  {
    "code": "IE_0061",
    "name": "신안가거초",
    "lat": 33.94194,
    "lng": 124.59277,
    "sea": "서해"
  },
  {
    "code": "IE_0062",
    "name": "옹진소청초",
    "lat": 37.42305,
    "lng": 124.73805,
    "sea": "서해"
  },
  {
    "code": "SO_0326",
    "name": "미조항",
    "lat": 34.70638,
    "lng": 128.04861,
    "sea": "남해"
  },
  {
    "code": "SO_0538",
    "name": "안마도",
    "lat": 35.34555,
    "lng": 126.01611,
    "sea": "서해"
  },
  {
    "code": "SO_0539",
    "name": "강화외포",
    "lat": 37.70083,
    "lng": 126.3725,
    "sea": "서해"
  },
  {
    "code": "SO_0547",
    "name": "말도",
    "lat": 35.85527,
    "lng": 126.31833,
    "sea": "서해"
  },
  {
    "code": "SO_0548",
    "name": "우이도",
    "lat": 34.62055,
    "lng": 125.85666,
    "sea": "서해"
  },
  {
    "code": "SO_0549",
    "name": "초도",
    "lat": 34.24055,
    "lng": 127.24527,
    "sea": "서해"
  },
  {
    "code": "SO_0550",
    "name": "나로도",
    "lat": 34.46305,
    "lng": 127.45388,
    "sea": "남해"
  },
  {
    "code": "SO_0551",
    "name": "여서도",
    "lat": 33.98805,
    "lng": 126.92333,
    "sea": "서해"
  },
  {
    "code": "SO_0552",
    "name": "고현항",
    "lat": 34.90194,
    "lng": 128.62222,
    "sea": "남해"
  },
  {
    "code": "SO_0553",
    "name": "해운대",
    "lat": 35.16027,
    "lng": 129.1915,
    "sea": "남해"
  },
  {
    "code": "SO_0554",
    "name": "영종왕산",
    "lat": 37.45805,
    "lng": 126.35888,
    "sea": "서해"
  },
  {
    "code": "SO_0555",
    "name": "서망항",
    "lat": 34.36666,
    "lng": 126.13416,
    "sea": "서해"
  },
  {
    "code": "SO_0562",
    "name": "승봉도",
    "lat": 37.16972,
    "lng": 126.29055,
    "sea": "서해"
  },
  {
    "code": "SO_0563",
    "name": "울도",
    "lat": 37.03555,
    "lng": 125.995,
    "sea": "서해"
  },
  {
    "code": "SO_0564",
    "name": "국화도",
    "lat": 37.06055,
    "lng": 126.56055,
    "sea": "서해"
  },
  {
    "code": "SO_0565",
    "name": "향화도항",
    "lat": 35.16777,
    "lng": 126.35944,
    "sea": "서해"
  },
  {
    "code": "SO_0566",
    "name": "송공항",
    "lat": 34.84833,
    "lng": 126.22527,
    "sea": "서해"
  },
  {
    "code": "SO_0567",
    "name": "쉬미항",
    "lat": 34.50472,
    "lng": 126.18361,
    "sea": "서해"
  },
  {
    "code": "SO_0568",
    "name": "백야도",
    "lat": 34.62444,
    "lng": 127.63222,
    "sea": "남해"
  },
  {
    "code": "SO_0570",
    "name": "광암항",
    "lat": 35.1025,
    "lng": 128.49888,
    "sea": "남해"
  },
  {
    "code": "SO_0571",
    "name": "거제외포",
    "lat": 34.93944,
    "lng": 128.71805,
    "sea": "남해"
  },
  {
    "code": "SO_0572",
    "name": "읍천항",
    "lat": 35.69083,
    "lng": 129.47555,
    "sea": "동해"
  },
  {
    "code": "SO_0573",
    "name": "양포항",
    "lat": 35.88138,
    "lng": 129.5275,
    "sea": "동해"
  },
  {
    "code": "SO_0574",
    "name": "백사장항",
    "lat": 36.58638,
    "lng": 126.315,
    "sea": "서해"
  },
  {
    "code": "SO_0576",
    "name": "화봉리",
    "lat": 34.66111,
    "lng": 126.25694,
    "sea": "서해"
  },
  {
    "code": "SO_0577",
    "name": "가거도",
    "lat": 34.05083,
    "lng": 125.12888,
    "sea": "서해"
  },
  {
    "code": "SO_0581",
    "name": "강양항",
    "lat": 35.39,
    "lng": 129.34472,
    "sea": "남해"
  },
  {
    "code": "SO_0631",
    "name": "암태도",
    "lat": 34.85305,
    "lng": 126.07138,
    "sea": "서해"
  },
  {
    "code": "SO_0699",
    "name": "천리포항",
    "lat": 36.80388,
    "lng": 126.14694,
    "sea": "서해"
  },
  {
    "code": "SO_0700",
    "name": "호도",
    "lat": 36.30388,
    "lng": 126.26472,
    "sea": "서해"
  },
  {
    "code": "SO_0701",
    "name": "홍도항",
    "lat": 34.68111,
    "lng": 125.195,
    "sea": "서해"
  },
  {
    "code": "SO_0702",
    "name": "진도옥도",
    "lat": 34.35083,
    "lng": 126.01861,
    "sea": "서해"
  },
  {
    "code": "SO_0704",
    "name": "소안항",
    "lat": 34.15,
    "lng": 126.63194,
    "sea": "서해"
  },
  {
    "code": "SO_0705",
    "name": "마량항",
    "lat": 34.44888,
    "lng": 126.82194,
    "sea": "서해"
  },
  {
    "code": "SO_0708",
    "name": "안도항",
    "lat": 34.47972,
    "lng": 127.79777,
    "sea": "남해"
  },
  {
    "code": "SO_0709",
    "name": "두문포",
    "lat": 34.64361,
    "lng": 127.7975,
    "sea": "남해"
  },
  {
    "code": "SO_0710",
    "name": "봉우항",
    "lat": 34.93277,
    "lng": 127.9275,
    "sea": "남해"
  },
  {
    "code": "SO_0711",
    "name": "창선도",
    "lat": 34.84055,
    "lng": 128.01944,
    "sea": "남해"
  },
  {
    "code": "SO_0712",
    "name": "능양항",
    "lat": 34.81222,
    "lng": 128.245,
    "sea": "남해"
  },
  {
    "code": "SO_0731",
    "name": "대진항",
    "lat": 38.50138,
    "lng": 128.42616,
    "sea": "남해"
  },
  {
    "code": "SO_0732",
    "name": "남애항",
    "lat": 37.94422,
    "lng": 128.78833,
    "sea": "동해"
  },
  {
    "code": "SO_0733",
    "name": "강릉항",
    "lat": 37.77227,
    "lng": 128.95133,
    "sea": "동해"
  },
  {
    "code": "SO_0734",
    "name": "궁촌항",
    "lat": 37.3278,
    "lng": 129.27002,
    "sea": "동해"
  },
  {
    "code": "SO_0735",
    "name": "죽변항",
    "lat": 37.05483,
    "lng": 129.42391,
    "sea": "동해"
  },
  {
    "code": "SO_0736",
    "name": "축산항",
    "lat": 36.50994,
    "lng": 129.44813,
    "sea": "동해"
  },
  {
    "code": "SO_0737",
    "name": "강구항",
    "lat": 36.35858,
    "lng": 129.3913,
    "sea": "동해"
  },
  {
    "code": "SO_0752",
    "name": "검산항",
    "lat": 35,
    "lng": 126.10777,
    "sea": "서해"
  },
  {
    "code": "SO_0753",
    "name": "하의도웅곡",
    "lat": 34.60833,
    "lng": 126.03861,
    "sea": "서해"
  },
  {
    "code": "SO_0755",
    "name": "원동항",
    "lat": 34.39388,
    "lng": 126.64861,
    "sea": "서해"
  },
  {
    "code": "SO_0756",
    "name": "사초항",
    "lat": 34.47027,
    "lng": 126.76111,
    "sea": "서해"
  },
  {
    "code": "SO_0757",
    "name": "안남리",
    "lat": 34.73027,
    "lng": 127.26444,
    "sea": "서해"
  },
  {
    "code": "SO_0758",
    "name": "달천도",
    "lat": 34.76166,
    "lng": 127.56305,
    "sea": "남해"
  },
  {
    "code": "SO_0759",
    "name": "장문리",
    "lat": 34.87361,
    "lng": 128.42416,
    "sea": "남해"
  },
  {
    "code": "SO_0760",
    "name": "오산항",
    "lat": 36.88888,
    "lng": 129.41611,
    "sea": "동해"
  },
  {
    "code": "SO_1248",
    "name": "신안옥도",
    "lat": 34.68388,
    "lng": 126.06444,
    "sea": "서해"
  },
  {
    "code": "SO_1249",
    "name": "독거도",
    "lat": 34.25611,
    "lng": 126.17861,
    "sea": "서해"
  },
  {
    "code": "SO_1251",
    "name": "낙월도",
    "lat": 35.20027,
    "lng": 126.14583,
    "sea": "서해"
  },
  {
    "code": "SO_1252",
    "name": "외연도항",
    "lat": 36.225,
    "lng": 126.08166,
    "sea": "서해"
  },
  {
    "code": "SO_1254",
    "name": "만재도",
    "lat": 34.21,
    "lng": 125.47222,
    "sea": "서해"
  },
  {
    "code": "SO_1255",
    "name": "상태도",
    "lat": 34.435,
    "lng": 125.285,
    "sea": "서해"
  },
  {
    "code": "SO_1256",
    "name": "어류정항",
    "lat": 37.64333,
    "lng": 126.34277,
    "sea": "서해"
  },
  {
    "code": "SO_1257",
    "name": "강화하리",
    "lat": 37.72805,
    "lng": 126.28666,
    "sea": "서해"
  },
  {
    "code": "SO_1258",
    "name": "잠진도",
    "lat": 37.41555,
    "lng": 126.41527,
    "sea": "서해"
  },
  {
    "code": "SO_1260",
    "name": "방포항",
    "lat": 36.50222,
    "lng": 126.32527,
    "sea": "서해"
  },
  {
    "code": "SO_1261",
    "name": "무창포항",
    "lat": 36.24972,
    "lng": 126.53472,
    "sea": "서해"
  },
  {
    "code": "SO_1262",
    "name": "격포항",
    "lat": 35.62027,
    "lng": 126.46333,
    "sea": "서해"
  },
  {
    "code": "SO_1263",
    "name": "구시포항",
    "lat": 35.44722,
    "lng": 126.42583,
    "sea": "서해"
  },
  {
    "code": "SO_1264",
    "name": "계마항",
    "lat": 35.39055,
    "lng": 126.40166,
    "sea": "서해"
  },
  {
    "code": "SO_1265",
    "name": "송이도",
    "lat": 35.27166,
    "lng": 126.15027,
    "sea": "서해"
  },
  {
    "code": "SO_1266",
    "name": "남열항",
    "lat": 34.57694,
    "lng": 127.48083,
    "sea": "남해"
  },
  {
    "code": "SO_1269",
    "name": "연도항",
    "lat": 36.08111,
    "lng": 126.44277,
    "sea": "서해"
  },
  {
    "code": "SO_1270",
    "name": "삼길포항",
    "lat": 37.00444,
    "lng": 126.4525,
    "sea": "서해"
  },
  {
    "code": "SO_1271",
    "name": "어은돌항",
    "lat": 36.74861,
    "lng": 126.12972,
    "sea": "서해"
  },
  {
    "code": "SO_1272",
    "name": "다대포항",
    "lat": 35.05444,
    "lng": 128.9725,
    "sea": "남해"
  },
  {
    "code": "SO_1276",
    "name": "아야진항",
    "lat": 38.27083,
    "lng": 128.55777,
    "sea": "남해"
  },
  {
    "code": "SO_1277",
    "name": "화순항",
    "lat": 33.2375,
    "lng": 126.33444,
    "sea": "서해"
  },
  {
    "code": "SO_1278",
    "name": "원평항",
    "lat": 34.78175,
    "lng": 125.90855,
    "sea": "서해"
  },
  {
    "code": "SO_1280",
    "name": "덕산항",
    "lat": 37.37742,
    "lng": 129.25352,
    "sea": "동해"
  },
  {
    "code": "SO_1281",
    "name": "임원항",
    "lat": 37.2281,
    "lng": 129.34306,
    "sea": "동해"
  },
  {
    "code": "SO_1283",
    "name": "사천진항",
    "lat": 37.87583,
    "lng": 128.87583,
    "sea": "동해"
  },
  {
    "code": "SO_1285",
    "name": "구계항",
    "lat": 36.31875,
    "lng": 129.37911,
    "sea": "동해"
  },
  {
    "code": "SO_1286",
    "name": "영덕대진항",
    "lat": 36.55794,
    "lng": 129.43158,
    "sea": "동해"
  },
  {
    "code": "SO_1287",
    "name": "구산항",
    "lat": 36.76025,
    "lng": 129.47238,
    "sea": "동해"
  },
  {
    "code": "SO_1288",
    "name": "기사문항",
    "lat": 38.00711,
    "lng": 128.73061,
    "sea": "동해"
  },
  {
    "code": "SO_1289",
    "name": "삼척항",
    "lat": 37.43738,
    "lng": 129.19138,
    "sea": "동해"
  }
]